City_ID,City,Country,Max Temp,Current Description,Lat,Lng,Hotel Name
3,Rikitea,PF,73.08,clear sky,-23.1203,-134.9692,People ThankYou
5,Hobart,AU,60.66,clear sky,-42.8794,147.3294,St Ives Hobart Accommodation Tasmania
8,Aguimes,ES,68.63,few clouds,27.9054,-15.4461,Hotel Villa de Aguimes
9,Busselton,AU,63.21,clear sky,-33.65,115.3333,Observatory Guest House
10,Baringo,KE,79.32,clear sky,0.4667,35.9667,Khoisang Hostels
11,Portland,US,67.78,clear sky,45.5234,-122.6762,Embassy Suites by Hilton Portland Downtown
13,Caravelas,BR,66.0,overcast clouds,-17.7125,-39.2481,Pousada dos Navegantes
16,Arraial Do Cabo,BR,67.42,few clouds,-22.9661,-42.0278,Pousada Porto Praia
17,Salmon Creek,US,67.32,clear sky,45.7107,-122.649,La Quinta Inn & Suites by Wyndham Vancouver
18,Butaritari,KI,82.4,overcast clouds,3.0707,172.7902,Isles Sunset Lodge
21,Poso,ID,84.52,scattered clouds,-1.3959,120.7524,Hotel 77 Poso
25,Ojinaga,MX,79.75,clear sky,29.5667,-104.4167,Suites Las Palmas
26,Usolye,RU,64.18,overcast clouds,59.4268,56.6808,Khostel Barbaris Na Solevarov
27,Kapaa,US,80.58,overcast clouds,22.0752,-159.319,Sheraton Kauai Coconut Beach Resort
28,Touros,BR,74.84,overcast clouds,-5.1989,-35.4608,INN NEW HORIZON
29,Nakamura,JP,77.07,broken clouds,32.9833,132.9333,Hotel Crown Hills Nakamura
31,Sao Joao Da Barra,BR,67.93,clear sky,-21.6403,-41.0511,Pousada Porto De Canoas
32,Harper,LR,75.69,light rain,4.375,-7.7169,Screensaver
33,La Orilla,MX,75.04,overcast clouds,17.9833,-102.2333,Baymont by Wyndham Lazaro Cardenas
34,Mackay,AU,82.69,few clouds,-21.15,149.2,International Lodge Motel
40,Ballina,AU,69.84,clear sky,-28.8667,153.5667,Ramada Hotel & Suites by Wyndham Ballina Byron
41,Kilindoni,TZ,77.2,overcast clouds,-7.9139,39.6668,Bustani B&B
43,Biak,ID,82.0,moderate rain,-0.9131,122.8766,Penginapan Kim
44,Caibarien,CU,76.32,clear sky,22.5206,-79.4669,La Nena
45,Cape Town,ZA,64.11,clear sky,-33.9258,18.4232,"Radisson Blu Hotel Waterfront, Cape Town"
47,Kloulklubed,PW,84.7,overcast clouds,7.0419,134.2556,Storyboard Beach Resort
48,Bethel,US,66.54,clear sky,41.3712,-73.414,Courtyard by Marriott Danbury
49,Derbent,RU,76.55,few clouds,42.0678,48.2899,Elit
51,Olinda,BR,78.53,scattered clouds,-8.0089,-34.8553,Flat Quatro Rodas Olinda
54,Colares,PT,73.76,few clouds,38.7992,-9.4469,Arribas Sintra Hotel
58,Oblivskaya,RU,66.83,broken clouds,48.5362,42.5014,Мотель Каприз
59,Mount Gambier,AU,63.97,overcast clouds,-37.8333,140.7667,The Commodore
62,San Andres,CO,78.82,scattered clouds,12.5847,-81.7006,Hotel Arena Blanca
63,Hasaki,JP,70.29,overcast clouds,35.7333,140.8333,Inubosaki Kanko Hotel
65,Sabancuy,MX,76.21,few clouds,18.9667,-91.1833,Posada Sabancuy
67,Saint-Joseph,RE,75.58,light rain,-21.3667,55.6167,"""Plantation Bed and Breakfast"
68,Ribeira Grande,PT,70.2,few clouds,38.5167,-28.7,Quinta da Meia Eira
69,Phan Thiet,VN,87.35,light rain,10.9333,108.1,Hotel Saigon-PT
70,Mikuni,JP,67.15,overcast clouds,36.2171,136.1519,Seifuso
71,Puerto Ayora,EC,67.55,broken clouds,-0.7393,-90.3518,Finch Bay Galapagos Hotel
72,Matale,LK,88.5,overcast clouds,7.4721,80.6234,Anil's Inn
73,Salalah,OM,86.09,broken clouds,17.0151,54.0924,"HAMDAN PLAZA HOTEL SALALAH, an HTG Hotel"
74,New Norfolk,AU,60.3,moderate rain,-42.7826,147.0587,The Shingles Riverside Cottages
75,Saint George,US,75.94,clear sky,37.1041,-113.5841,Best Western Plus Abbey Inn
76,Pandan,PH,84.61,moderate rain,14.0453,124.1694,Bonifacio Lodge
77,Lazaro Cardenas,MX,75.49,overcast clouds,17.9583,-102.2,HOTEL QUINTA ANTIGUA
78,Tura,IN,85.55,scattered clouds,25.5198,90.2201,Hotel RIKMAN Continental
79,Moerai,PF,73.72,clear sky,-22.4333,-151.3333,Le Manotel
81,Cabo San Lucas,MX,80.51,overcast clouds,22.8909,-109.9124,Hotel Tesoro Los Cabos
82,Jamestown,US,65.79,broken clouds,42.097,-79.2353,Hampton Inn & Suites Jamestown
86,Bengkulu,ID,81.01,overcast clouds,-3.8004,102.2655,Grage Hotel Bengkulu
88,Tecalitlan,MX,64.78,overcast clouds,19.4667,-103.3,Hotel Tierra Bella
93,Sorong,ID,83.37,light rain,-0.8833,131.25,Waigo Splash Hotel
94,Dingle,PH,85.46,heavy intensity rain,10.9995,122.6711,SEGAYA PROPERTY
95,Anshun,CN,78.03,broken clouds,26.25,105.9333,安顺麦吉风格酒店
97,Puerto El Triunfo,SV,75.51,light rain,13.2833,-88.55,Hotel Jardin
98,Vila Velha,BR,69.75,broken clouds,-20.3297,-40.2925,Hotel Vitória Palace
100,Corsicana,US,79.75,clear sky,32.0954,-96.4689,"Holiday Inn Express & Suites Corsicana I-45, an IHG Hotel"
104,Padang,ID,86.05,overcast clouds,-0.9492,100.3543,Mercure Padang
106,Vaini,TO,75.36,broken clouds,-21.2,-175.2,Keleti Beach Resort
109,Melilla,ES,73.78,broken clouds,35.2937,-2.9383,Hotel Anfora
112,Abalak,RU,72.75,scattered clouds,58.1286,68.5944,Туристический комплекс Абалак
113,Esperance,AU,62.92,few clouds,-33.8667,121.9,Hospitality Esperance
115,Saint Anthony,US,69.73,scattered clouds,45.0205,-93.218,"Holiday Inn Express Roseville-St. Paul, an IHG Hotel"
116,Uray,RU,68.41,overcast clouds,60.1247,64.7758,Hotel Pioner
117,Kavieng,PG,82.99,scattered clouds,-2.5744,150.7967,Nusa Island Retreat
118,Mahon,ES,68.56,few clouds,39.8885,4.2658,ARTIEM Capri
119,Brookings,US,70.38,clear sky,44.3114,-96.7984,"Holiday Inn Express & Suites Brookings, an IHG Hotel"
121,Ponta Do Sol,PT,70.72,few clouds,32.6667,-17.1,Hotel do Campo
123,Tambopata,PE,77.9,broken clouds,-12.7333,-69.1833,Enashawa Lodge
124,Nuevo Progreso,MX,76.46,clear sky,23.1667,-97.95,Balneario Rio el Paraiso
125,Guerrero Negro,MX,69.64,overcast clouds,27.9769,-114.0611,"Casa Laguna, Bed & Breakfast"
132,Srivardhan,IN,81.99,scattered clouds,18.0333,73.0167,Savli Resort/Hotel - Shrivardhan
133,Faanui,PF,78.53,clear sky,-16.4833,-151.75,Bora-Bora Pearl Beach Resort & Spa
134,Woodbridge,US,72.3,clear sky,40.5576,-74.2846,Hampton Inn Woodbridge
136,Katsuura,JP,71.62,overcast clouds,35.1333,140.3,Katsuura Hotel Mikazuki
138,Kotido,UG,78.78,clear sky,2.9806,34.1331,Loware Joseph Mukasa's Residence
140,Kabale,UG,70.21,few clouds,-1.2486,29.9899,Kings Hotel Kabale
141,Coahuayana,MX,74.41,overcast clouds,18.7333,-103.6833,El rranchito michuacan de ocampos
142,Hithadhoo,MV,82.24,overcast clouds,-0.6,73.0833,Scoop Guest House
143,Chiredzi,ZW,86.79,clear sky,-21.05,31.6667,Clevers Hotel Chiredzi
144,Zihuatanejo,MX,77.18,overcast clouds,17.6333,-101.55,La Casa Que Canta
145,Kamaishi,JP,64.96,light rain,39.2667,141.8833,Hotel Route Inn Kamaishi
150,Cervo,ES,63.97,clear sky,43.6702,-7.4101,Hotel Spa Galatea
151,Oktyabrskiy,RU,60.98,overcast clouds,54.4815,53.471,Гостиница Октябрьская
154,Am Timan,TD,78.94,scattered clouds,11.0297,20.2827,Palais du chef Canton Salamt
155,Kahului,US,79.84,few clouds,20.8947,-156.47,Maui Seaside Hotel
157,Mahebourg,MU,75.49,few clouds,-20.4081,57.7,Shandrani Beachcomber Resort & Spa
158,Alofi,NU,76.44,clear sky,-19.0595,-169.9187,Taloa Heights
160,Hilo,US,74.28,overcast clouds,19.7297,-155.09,Hilo Hawaiian Hotel
161,Langsa,ID,87.91,overcast clouds,4.4683,97.9683,OYO 3328 Hotel Mori
163,Sao Filipe,CV,78.33,broken clouds,14.8961,-24.4956,Hotel Xaguate
164,Zaysan,KZ,73.51,clear sky,47.4667,84.8667,Ерлан үй
167,Zyukayka,RU,64.4,overcast clouds,58.2025,54.7003,"Gostinitsa ""Novinka"""
168,Kathmandu,NP,82.62,scattered clouds,27.7167,85.3167,Hotel Shanker Kathmandu
171,Port-Gentil,GA,78.76,broken clouds,-0.7193,8.7815,Fengshui Residence
172,Petropavl,KZ,76.98,clear sky,54.8753,69.1628,Отель GREENWICH
173,Ishigaki,JP,79.5,overcast clouds,24.3448,124.1572,Hotel Peace Land Ishigakijima
176,Ilhabela,BR,65.16,overcast clouds,-23.7781,-45.3581,Ilha Flat Hotel
178,Bambous Virieux,MU,75.45,few clouds,-20.3428,57.7575,Casa Tia Villa
179,Shingu,JP,75.07,overcast clouds,33.7333,135.9833,Shingu UI Hotel
182,Kenitra,MA,65.16,clear sky,34.261,-6.5802,Bienvenue chez vous
183,Westport,US,69.78,clear sky,41.1415,-73.3579,The Westport Inn
185,Dongsheng,CN,60.3,clear sky,39.8161,109.9776,Crowne Plaza Ordos
187,Williamsburg,US,73.74,clear sky,37.2707,-76.7075,Comfort Suites Williamsburg Historic Area
188,Lorengau,PG,83.53,scattered clouds,-2.0226,147.2712,Lorengau Harbourside Hotel
191,Gamboma,CG,77.81,light rain,-1.8764,15.8644,Residence N'Keni
194,Aswan,EG,88.47,clear sky,24.0934,32.907,Nuba Nile
195,Pacific Grove,US,62.71,overcast clouds,36.6177,-121.9166,Lovers Point Inn
197,Altay,CN,73.47,clear sky,47.8667,88.1167,Jinqiao Hotel
198,Les Cayes,HT,78.96,broken clouds,18.2,-73.75,Villa Orphee
199,Port Blair,IN,87.84,scattered clouds,11.6667,92.75,"Welcomhotel By ITC Hotels, Bay Island, Port Blair"
201,Saint-Philippe,RE,78.39,light rain,-21.3585,55.7679,Le four à pain
204,Fare,PF,78.33,clear sky,-16.7,-151.0167,Maitai Lapita Village Huahine
206,Roebourne,AU,83.97,clear sky,-20.7833,117.1333,Latitude20 Roebourne Village
208,Avarua,CK,71.65,light rain,-21.2078,-159.775,Paradise Inn
211,Emerald,AU,87.35,clear sky,-23.5333,148.1667,The Irish Village
214,Mehriz,IR,86.5,clear sky,31.5917,54.4318,Mehrgard dwelling/سرای مهرگرد
215,Georgetown,MY,88.9,few clouds,5.4112,100.3354,Cititel Penang
216,Atuona,PF,77.14,light rain,-9.8,-139.0333,Hôtel Hiva Oa Hanakee Lodge
219,Bairiki,KI,82.4,broken clouds,1.3292,172.9752,Tarawa Boutique Hotel
224,Cayenne,GF,78.84,clear sky,4.9333,-52.3333,Hôtel Le Dronmi
226,Sinnamary,GF,76.96,overcast clouds,5.3833,-52.95,ALETHEIA Appartement Sinnamary
228,Garut,ID,77.65,overcast clouds,-7.2024,107.8878,favehotel
229,Roma,US,63.52,overcast clouds,43.2128,-75.4557,Wingate By Wyndham Rome
230,Shache,CN,82.58,clear sky,38.4167,77.2406,Delong Hotel
231,Camacha,PT,69.22,scattered clouds,33.0833,-16.3333,Hotel Porto Santo & Spa
232,Kathu,TH,85.69,overcast clouds,7.9178,98.3332,Novotel Phuket Resort
234,Baculin,PH,84.38,overcast clouds,7.4525,126.5842,Baculin Cove Beach Resort
235,Buta,CD,80.17,clear sky,2.7858,24.73,Hôtel BOPANDO
236,Le Vauclin,MQ,77.05,broken clouds,14.5452,-60.8388,Hôtel Cap Macabou
237,Breves,BR,72.46,broken clouds,-1.6822,-50.4803,Hotel e Restaurante Grill
238,Metlaltoyuca,MX,69.31,overcast clouds,20.7333,-97.85,"Hotel ""Doña Yuya"""
240,Carnarvon,AU,70.02,clear sky,-24.8667,113.6333,Hospitality Carnarvon
241,Krasnyy Yar,RU,78.73,light rain,46.5331,48.3456,Cottege near Ufa
242,Kuntaur,GM,74.1,overcast clouds,13.6667,-14.8833,Kairoh Garden Kuntaur
243,Bagotville,AU,69.69,clear sky,-28.9833,153.4167,Broadwater Sunrise Caravan Park
245,Havelock,US,74.93,clear sky,34.8791,-76.9013,Sherwood Motel
246,Camargo,MX,73.63,few clouds,27.6667,-105.1667,Hotel Santa Fe
247,Sainte-Maxime,FR,71.01,clear sky,43.3,6.6333,Hôtel Les Jardins De Sainte Maxime
248,Emirdag,TR,66.42,overcast clouds,39.0197,31.15,Emirdağ Öğretmenevi
249,Omboue,GA,76.87,overcast clouds,-1.5746,9.2618,Hotel Olako
250,Ahuimanu,US,80.31,few clouds,21.4447,-157.8378,Paradise Bay Resort
253,Mount Isa,AU,85.77,scattered clouds,-20.7333,139.5,ibis Styles Mt Isa Verona
256,Inhambane,MZ,80.58,few clouds,-23.865,35.3833,Oceano
257,Carauari,BR,72.28,few clouds,-4.8828,-66.8958,Hotel Fellip
258,Toumodi,CI,72.16,light rain,6.5613,-5.0158,Hotel Akanza
264,Naze,JP,77.83,overcast clouds,28.3667,129.4833,Shishime Hotel
266,Placido De Castro,BR,78.64,overcast clouds,-10.3353,-67.1856,Hotel Carioca
268,Yamada,JP,64.15,light rain,39.4667,141.95,Iroha-ya Inn
271,Gaziantep,TR,76.93,scattered clouds,37.0594,37.3825,Novotel Gaziantep
272,Natal,BR,72.25,scattered clouds,-5.795,-35.2094,Villa Park Hotel | Natal
273,Trairi,BR,76.91,clear sky,-3.2778,-39.2689,janelas do mar
274,Sao Jose Da Coroa Grande,BR,74.17,broken clouds,-8.8978,-35.1478,Crôa Mares Hotel
275,Hovd,MN,64.58,clear sky,48.0056,91.6419,Hotel Khovd
276,Alenquer,BR,74.73,few clouds,-1.9417,-54.7383,Detinha Hotel
277,Karratha,AU,83.8,clear sky,-20.7377,116.8463,ibis Styles Karratha
278,Pauini,BR,76.23,broken clouds,-7.7136,-66.9764,Casa do Kiwliks
281,Tabou,CI,75.0,light rain,4.423,-7.3528,hotêl doufoulougou
282,Pringsewu,ID,89.98,broken clouds,-5.3582,104.9744,Urban Style by Front One
283,Houma,US,75.0,mist,29.5958,-90.7195,Courtyard by Marriott Houma
287,Half Moon Bay,US,62.82,clear sky,37.4636,-122.4286,"The Ritz-Carlton, Half Moon Bay"
289,Oussouye,SN,80.69,overcast clouds,12.485,-16.5469,Auberge du Routard
290,Capaci,IT,79.75,clear sky,38.1711,13.2393,Hotel Sirenetta
292,Narathiwat,TH,84.06,overcast clouds,6.3333,101.75,MUSOR
293,Kendari,ID,82.58,scattered clouds,-3.945,122.4989,Hotel Wixel
294,Paita,PE,64.15,overcast clouds,-5.0892,-81.1144,Hotel Náutico de Paita
297,Meulaboh,ID,85.01,overcast clouds,4.1363,96.1285,Kost Pria
299,Tanete,ID,82.87,overcast clouds,-3.9443,119.7848,Wisma Tri Multi
300,Jalu,LY,84.07,clear sky,29.0331,21.5482,صاحبة الفخامة
301,Iquitos,PE,73.44,clear sky,-3.7481,-73.2472,Cortez Malaga Techy Caroly
303,Asha,RU,73.71,overcast clouds,54.9973,57.2722,Hotel Tortuga
304,Miandrivazo,MG,87.49,clear sky,-19.5167,45.4667,Hôtel Arc En Ciel Miandrivazo
308,Matay,EG,81.64,clear sky,28.419,30.7792,Nag Aespen
312,Morro Bay,US,64.2,broken clouds,35.3658,-120.8499,Inn at Morro Bay
313,Iracoubo,GF,76.26,overcast clouds,5.4802,-53.2011,Le Gîte d’Iracoubo
314,Boshan,CN,64.87,overcast clouds,36.4833,117.8333,Tianfu Hotel
315,Vanimo,PG,80.74,overcast clouds,-2.6741,141.3028,Vahmoneh Lodge Vanimo
316,Saint-Pierre,RE,78.48,few clouds,-21.3393,55.4781,Alize Plage
320,Ambon,ID,86.14,few clouds,-3.6954,128.1814,Swiss-Belhotel Ambon
324,Jacksonville Beach,US,76.05,clear sky,30.2947,-81.3931,Courtyard by Marriott Jacksonville Beach Oceanfront
326,Crotone,IT,73.35,clear sky,39.0851,17.1178,Helios Hotel
328,Itarema,BR,77.18,few clouds,-2.9248,-39.9167,"Sea Lounge! Bar, Club & Restaurant"
331,Hambantota,LK,87.21,overcast clouds,6.1241,81.1185,Bungalow 63
332,Urumqi,CN,76.15,clear sky,43.801,87.6005,Hua Ling Grand Hotel Urumqi
335,Kattivakkam,IN,89.69,overcast clouds,13.2167,80.3167,Euronova Freezer
338,Sillod,IN,80.17,broken clouds,20.3,75.65,पवन
339,Nago,JP,84.63,overcast clouds,26.5881,127.9761,Hotel Yugaf Inn Okinawa
341,Santa Rosa,PH,82.38,light rain,14.3122,121.1114,Erlyn’s Sta Rosa City Home
342,Kashi,CN,78.01,few clouds,39.4547,75.9797,帕米尔青年旅舍
344,Minot,US,70.02,broken clouds,48.2325,-101.2963,Noble Inn
345,Lincoln,US,81.97,clear sky,40.8,-96.667,Courtyard by Marriott Lincoln Downtown/Haymarket
347,Sitangkai,PH,84.38,broken clouds,4.6628,119.3928,Ama House
349,Quatre Cocos,MU,75.31,light rain,-20.2078,57.7625,Sunrise Attitude Hotel
350,Samarai,PG,80.6,heavy intensity rain,-10.6167,150.6667,Nuli Sapi
351,Bowen,AU,77.0,scattered clouds,-20.0167,148.2333,Castle Motor Lodge Motel
352,Manta,EC,70.41,overcast clouds,-0.95,-80.7333,Balandra Hotel
355,Morgan City,US,73.99,clear sky,29.6994,-91.2068,Hampton Inn & Suites Morgan City
356,Gizo,SB,83.19,light rain,-8.103,156.8419,Imagination Island
357,Faya,SA,79.32,scattered clouds,18.3851,42.4509,املاك خالد الشعشوع
361,Kralendijk,BQ,78.78,overcast clouds,12.15,-68.2667,Divi Flamingo Beach Resort & Casino
362,Geraldton,AU,68.41,overcast clouds,-28.7667,114.6,Broadwater Mariner Resort
363,Hamilton,US,69.04,fog,39.1834,-84.5333,Six Acres Bed & Breakfast
365,Iberia,US,77.07,clear sky,29.9502,-91.7507,back to back rv park
366,Meadow Lake,US,72.88,few clouds,34.8014,-106.5436,TumbleWeed RV Park
368,Namibe,AO,65.21,scattered clouds,-15.1961,12.1522,Hotel Chik Chik Namibe
371,Jimma,ET,68.27,light rain,7.6667,36.8333,Jimma Central Hotel - ጂማ ሴንትራል ሆቴል
376,Puerto Del Rosario,ES,73.15,scattered clouds,28.5004,-13.8627,Hotel JM Puerto del Rosario
377,Nouadhibou,MR,71.58,clear sky,20.931,-17.0347,El Medina
382,Belmonte,BR,71.96,overcast clouds,-15.8631,-38.8828,Pousada Monte Carmelo O Pão
384,Vic,ES,66.06,scattered clouds,41.9301,2.2549,Up Rooms Vic Hotel
386,Laguna,US,63.75,haze,38.421,-121.4238,"Holiday Inn Express & Suites Elk Grove Central - Hwy 99, an IHG Hotel"
387,Negombo,LK,82.4,broken clouds,7.2083,79.8358,Hotel Sunset Beach
388,Boyuibe,BO,60.08,broken clouds,-20.4167,-63.2833,Residencial Eluzai
389,Shenjiamen,CN,72.84,clear sky,29.9576,122.298,Jinjiang Inn Zhoushan Putuo Shenjiamen
390,Dorado,PR,79.47,overcast clouds,18.4588,-66.2677,Embassy Suites by Hilton Dorado del Mar Beach Resort
393,Ixtapa,MX,80.22,overcast clouds,20.7,-105.2,hotel la terminal
395,Korla,CN,83.71,clear sky,41.7597,86.1469,Gulisitan Hotel
396,At-Bashi,KG,70.41,clear sky,41.1702,75.8106,Hostel At-Bashy
398,Crossville,US,68.95,mist,35.949,-85.0269,Hampton Inn Crossville
400,Ajaccio,FR,69.85,clear sky,42.0,8.9167,Sole E Monte
401,Zopilotepe,HN,69.82,overcast clouds,14.6,-86.2667,HOTEL COLONIAL VILLA GILMA
404,Dubbo,AU,68.13,overcast clouds,-32.25,148.6167,Quality Inn Dubbo International
407,Tawang,IN,70.72,light rain,27.5833,91.8667,Hotel Mount View
408,Praia,CV,75.74,few clouds,14.9215,-23.5087,LT Aparthotel
409,Gazli,UZ,88.18,clear sky,40.1333,63.45,UTG Uy-joy kommunal xoʻjaligi
410,Tongliao,CN,67.1,clear sky,43.6125,122.2653,Meirujia Hotel
411,Yeppoon,AU,82.18,few clouds,-23.1333,150.7333,Villa Mar Colina
412,Abu Zabad,SD,77.11,overcast clouds,12.35,29.25,حامد محمد نور
414,Victoria,HK,87.96,scattered clouds,22.2855,114.1577,Mini Central
415,Lagoa,PT,72.9,broken clouds,39.05,-27.9833,Casa Das Faias
417,Ambulu,ID,82.49,overcast clouds,-8.345,113.6058,Hotel Ambulu Jember
419,Fukue,JP,73.76,few clouds,32.6881,128.8419,Goto Guesthouse Utojuku & SA Car Rental
420,Bathsheba,BB,81.21,few clouds,13.2167,-59.5167,Atlantis Hotel
422,Khasan,RU,62.37,clear sky,42.4308,130.6434,Fangchuan Self-Driving Camp
425,Xiashi,CN,80.62,few clouds,30.5363,120.6864,皮都锦江大酒店
426,Dawei,MM,81.09,overcast clouds,14.0833,98.2,Hotel Dawei
427,Chifeng,CN,71.37,clear sky,42.2683,118.9636,Junyu Tiancheng Hotel
429,Bridgetown,BB,81.09,few clouds,13.1,-59.6167,Hilton Barbados Resort
431,Flinders,AU,67.17,clear sky,-34.5833,150.8552,Shellharbour Resort & Conference Centre
433,Asyut,EG,85.64,clear sky,27.181,31.1837,فندق ميس إيجيبت Miss Egypt Hotel
434,Koumac,NC,76.3,clear sky,-20.5667,164.2833,Le Monitel
435,Opelousas,US,76.89,clear sky,30.5335,-92.0815,"Holiday Inn Express & Suites Opelousas, an IHG Hotel"
438,Labrea,BR,75.07,clear sky,-7.2586,-64.7981,Hotel Novo Horizonte
440,Villa Rica,US,70.68,clear sky,33.7321,-84.9191,Days Inn by Wyndham Villa Rica
441,Valle De Allende,MX,67.05,broken clouds,26.9333,-105.4,Hotel Meson de San Bartolome
442,Ponta Delgada,PT,71.51,few clouds,37.7333,-25.6667,Vila Nova Hotel
444,Ulladulla,AU,67.77,clear sky,-35.35,150.4667,Sandpiper Motel
445,Teknaf,BD,83.12,clear sky,20.8624,92.3058,Forestry Guesthouse
447,Wahpeton,US,67.93,few clouds,46.2652,-96.6059,Select Inn Breckenridge
448,Goderich,CA,67.91,few clouds,43.7501,-81.7165,Harmony Inn
451,Wanning,CN,87.06,scattered clouds,18.8003,110.3967,Paradise Hotel
452,Port Shepstone,ZA,62.01,overcast clouds,-30.7414,30.455,My Den Beachfront Bed and Breakfast | Self-Catering
453,Marzuq,YE,88.2,few clouds,14.4,46.4667,حيد القفلة
454,Anloga,GH,75.99,light rain,5.7947,0.8973,Pin Drop Hotel
456,Ocean City,US,73.42,clear sky,39.2776,-74.5746,Biscayne Suites
457,Wajima,JP,65.08,broken clouds,37.4,136.9,Wajiima Onsen Yashio
459,Bud,US,67.98,clear sky,39.447,-86.1758,Ted McQuinn Trust
460,South River,US,70.9,clear sky,40.4465,-74.386,"Holiday Inn Express & Suites Tower Center New Brunswick, an IHG Hotel"
463,Bandarbeyla,SO,89.31,clear sky,9.4942,50.8122,JABIR HOTEL
465,Chingirlau,KZ,78.66,scattered clouds,51.095,54.0814,Хостыл Аққу
466,Asuncion Mita,GT,70.16,overcast clouds,14.3308,-89.7108,Hotel Semillas De Vida
469,La Palma,US,70.07,broken clouds,33.8464,-118.0467,La Quinta Inn & Suites by Wyndham Buena Park
470,Eldoret,KE,67.06,clear sky,0.5204,35.2699,Flora Homes
471,Bonthe,SL,74.66,scattered clouds,7.5264,-12.505,Bonthe Holiday Village
473,Mayumba,GA,76.37,light rain,-3.432,10.6554,LIKWALE LODGE
475,Oyama,JP,72.59,light rain,36.3,139.8,Toyoko Inn Oyama-eki Higashi-guchi No.1
476,Cap Malheureux,MU,75.47,light rain,-19.9842,57.6142,Pereybere Hotel & Spa
481,Leh,IN,62.85,clear sky,34.1667,77.5833,Hotel Ladakh Greens
482,Ankpa,NG,71.91,overcast clouds,7.3706,7.6253,AA Suites
484,Bundaberg,AU,75.22,clear sky,-24.85,152.35,Takalvan Motel
488,Mazamet,FR,60.08,clear sky,43.49,2.373,La Villa de Mazamet
489,Nishihara,JP,83.86,broken clouds,26.1842,127.7558,Minshuku Agaihama
493,Vila Franca Do Campo,PT,71.2,clear sky,37.7167,-25.4333,Pestana Bahia Praia
494,Vezirkopru,TR,63.09,scattered clouds,41.1436,35.4547,Vezirkopru Ogretmenevi
496,San Cristobal,VE,65.34,overcast clouds,7.7669,-72.225,Pirineos
497,Yulara,AU,78.64,clear sky,-25.2406,130.9889,Desert Gardens Hotel - Ayers Rock Resort
498,Marsh Harbour,BS,82.76,clear sky,26.5412,-77.0636,Abaco Beach Resort
504,Turayf,SA,77.25,clear sky,31.6725,38.6637,Al Mudawah Hotel
505,Benghazi,LY,80.64,clear sky,32.1167,20.0667,Tibesti Hotel
506,Kambove,CD,78.22,few clouds,-10.8764,26.5969,Pat. Mukendi
507,Andros Town,BS,83.03,clear sky,24.7,-77.7667,Hanks place
508,Canutama,BR,75.16,clear sky,-6.5339,-64.3831,Pousada Deus é Fiél
510,Kousseri,CM,80.56,few clouds,12.0769,15.0306,Le Pilotis
511,Pinto,ES,69.89,clear sky,40.2415,-3.7,Posadas De España Pinto
513,Sakaiminato,JP,67.98,broken clouds,35.55,133.2333,Italian pasley
514,Mabaruma,GY,74.7,overcast clouds,8.2,-59.7833,Monty Brooms Guest House
515,Miles City,US,61.77,clear sky,46.4083,-105.8406,FairBridge Inn & Suites Miles City
516,Neiafu,TO,76.96,light rain,-18.65,-173.9833,Mystic Sands Beachfront Accommodation
518,Puerto Maldonado,PE,77.52,scattered clouds,-12.6,-69.1833,Wasai Hotel
519,Mahibadhoo,MV,82.45,overcast clouds,3.7833,72.9667,Omadhoo Inn
520,Gijon,ES,60.26,clear sky,43.5357,-5.6615,Hotel Norte
521,Komsomolets,KZ,77.63,overcast clouds,53.7453,62.0708,Avtostoyanka
522,Linfen,CN,70.99,overcast clouds,36.0889,111.5189,Suoxing Hotel
523,Vilhena,BR,70.59,clear sky,-12.7406,-60.1458,Hotel Mirage
524,Chany,RU,71.35,broken clouds,55.3121,76.7647,Sakura
526,San Patricio,US,84.09,clear sky,28.017,-97.5169,"Motel 6 Sinton, TX"
530,Kaduqli,SD,74.71,overcast clouds,11.0167,29.7167,Nussyba
533,Grand Gaube,MU,75.6,light rain,-20.0064,57.6608,Veranda Paul et Virginie Hotel & Spa
534,Waingapu,ID,86.56,overcast clouds,-9.6567,120.2641,Pondok Wisata Elim
536,Datong,CN,65.41,clear sky,40.0936,113.2914,Holiday Inn Datong City Centre
537,Bakchar,RU,61.3,overcast clouds,57.0186,82.0711,Gostinitsa Gostevoy Dom
538,Sola,VU,80.62,few clouds,-13.8833,167.55,Leumerus Bungalows
539,Maceio,BR,67.44,few clouds,-9.6658,-35.7353,Hotel Ponta Verde Maceió
540,Tonj,SS,80.76,few clouds,7.2737,28.6822,Lakan Hotel
542,Platteville,US,68.23,scattered clouds,42.7342,-90.4785,"Country Inn & Suites by Radisson, Platteville, WI"
543,Kailua,US,80.58,few clouds,21.4022,-157.7394,Sheffield House Bed & Breakfast
544,Kudahuvadhoo,MV,82.58,few clouds,2.6708,72.8944,Niyama Private Islands Maldives
549,Cockburn Town,TC,77.72,overcast clouds,21.4612,-71.1419,Osprey Beach Hotel
550,Benjamin Aceval,PY,66.6,scattered clouds,-24.9667,-57.5667,Escuela Agrícola y Hotel Cerrito
551,Lompoc,US,67.01,mist,34.6391,-120.4579,"Holiday Inn Express Lompoc, an IHG Hotel"
552,Gunjur,GM,75.27,moderate rain,13.2019,-16.7339,Jallo Kurundingoto Eco Tourist Camp
553,Cabedelo,BR,72.27,overcast clouds,-6.9811,-34.8339,Pousada Camboinha
555,Kutahya,TR,64.65,few clouds,39.4242,29.9833,Grand Çınar Hotel
556,Yanam,IN,87.82,overcast clouds,16.7333,82.2167,The Regency Hotel
558,Silver City,US,66.16,overcast clouds,32.7701,-108.2803,Copper Manor Motel
559,Evanston,US,66.2,few clouds,42.0411,-87.6901,Hilton Garden Inn Chicago North Shore/Evanston
561,Vaitape,PF,78.49,clear sky,-16.5167,-151.75,Conrad Bora Bora Nui
562,Jumla,NP,69.28,broken clouds,29.2747,82.1838,Royal Garden Hotel
563,Guatire,VE,78.69,scattered clouds,10.4762,-66.5427,Parque Residencial Canaima I
564,Kavaratti,IN,81.3,overcast clouds,10.5669,72.642,Green leaf
566,Lata,PT,65.07,few clouds,40.1629,-8.3327,Casa Maquia
567,Kangaba,ML,72.07,light rain,11.9333,-8.4167,CAF (case de l´amitié et de la fraternité)
568,Hervey Bay,AU,74.01,clear sky,-25.2986,152.8535,Shelly Bay Resort
570,Hohhot,CN,68.29,few clouds,40.8106,111.6522,Sheraton Hohhot Hotel
571,Isla Mujeres,MX,75.25,few clouds,21.2311,-86.731,Hotel La Joya Isla Mujeres
572,San Quintin,MX,68.13,clear sky,30.4833,-115.95,Don Eddie's Sport Fishing Center
574,Namatanai,PG,81.99,light rain,-3.6667,152.4333,Seagulls Inn Namatani
577,Alta Floresta,BR,71.33,broken clouds,-9.8756,-56.0861,Floresta Amazonica Hotel
578,Bubaque,GW,81.03,overcast clouds,11.2833,-15.8333,"Casa Dora, Bubaque"
579,Hatta,IN,87.06,broken clouds,24.1167,79.6,Agrawal Marriage Garden Bharat Tent House
580,Huarmey,PE,61.05,broken clouds,-10.0681,-78.1522,Hotel Miramar
581,Nha Trang,VN,89.6,scattered clouds,12.25,109.1833,Hanoi Golden Hotel
583,Tuy Hoa,VN,85.57,broken clouds,13.0833,109.3,CenDeluxe Hotel Tuy Hoa
584,Jashpurnagar,IN,78.22,overcast clouds,22.9,84.15,Sagar Restaurant
585,Kedougou,SN,75.78,scattered clouds,12.5579,-12.1743,Relais de Kédougou
587,Chitipa,MW,77.45,clear sky,-9.7024,33.2697,Tulipoka Lodges
595,Jabinyanah,TN,84.0,scattered clouds,35.035,10.9081,maison belmabrouk
600,Nagato,JP,68.9,clear sky,34.3833,131.2,いそう庵
602,Nyrob,RU,63.14,overcast clouds,60.733,56.7202,Gostinitsa
604,Forecariah,GN,72.41,few clouds,9.4306,-13.0881,"Motel "" La Maison Blanche"""
606,Serebryansk,KZ,74.25,clear sky,49.6925,83.2892,"Gostinitsa ""Vodoley"""
608,Brentwood,US,71.76,clear sky,40.7812,-73.2462,"Holiday Inn Express Hauppauge-Long Island, an IHG Hotel"
609,Asmara,ER,69.98,overcast clouds,15.3333,38.9333,Hamasien Hotel
610,Southwick,US,65.77,broken clouds,42.0548,-72.7704,Sodom Mountain Campground
612,Port Macquarie,AU,63.9,few clouds,-31.4333,152.9167,Rydges Port Macquarie
613,Santa Cruz,BO,72.86,thunderstorm with light rain,-17.8,-63.1667,Aviador Hotel Boutique
615,Arinos,BR,73.22,overcast clouds,-15.9169,-46.1056,casa do bruno
616,Ban Chang,TH,87.39,heavy intensity rain,12.7254,101.0553,Grand Garden Hotel
617,Fier,AL,70.02,clear sky,40.7239,19.5561,Hotel Fieri
618,Karatau,KZ,78.69,clear sky,43.1667,70.4667,Baza Zika
619,Sayyan,YE,71.65,broken clouds,15.1718,44.3244,متنزه و بحيرة سيان
620,Balkanabat,TM,89.92,clear sky,39.5108,54.3671,Nebitchi Hotel
622,Tefe,BR,72.84,clear sky,-3.3542,-64.7114,Aracati Hotel
623,Sao Felix Do Xingu,BR,71.78,clear sky,-6.6447,-51.995,Rio Xingu Camping
625,Gigmoto,PH,85.3,light rain,13.7796,124.39,Cj's Travellers Inn
629,Banda Aceh,ID,85.95,overcast clouds,5.5577,95.3222,OYO 884 Rumoh PMI Hotel
631,Oeiras Do Para,BR,73.08,broken clouds,-2.0031,-49.8544,Araticu Soft Hotel
632,Conde,BR,71.06,scattered clouds,-7.2597,-34.9075,Pousada Beija Flor
633,Pyapon,MM,86.0,overcast clouds,16.2833,95.6833,Aung Naing Thu Motel
634,Sulphur,US,76.98,clear sky,30.2366,-93.3774,Fairfield Inn & Suites by Marriott Lake Charles Sulphur
635,Port Hedland,AU,89.65,clear sky,-20.3167,118.5667,The Esplanade Hotel
637,Glendive,US,66.49,light rain,47.1053,-104.7125,Super 8 by Wyndham Glendive
641,Messina,IT,77.45,few clouds,38.1933,15.5497,Hotel Touring
642,Manicore,BR,73.35,clear sky,-5.8092,-61.3003,Hotel Durval
643,Bang Saphan,TH,80.31,light rain,11.2126,99.5117,Ladawan Boutique Hotel
644,Pitimbu,BR,72.19,overcast clouds,-7.4706,-34.8086,Reserva do Abiaí
645,Rize,TR,61.11,few clouds,40.9044,40.8949,Zilkale Otel
646,Baripada,IN,87.71,overcast clouds,21.935,86.7214,Aparna Hotel
647,Patuli,IN,89.1,broken clouds,23.55,88.25,Mahanta hotel
648,Ximei,CN,87.33,scattered clouds,24.9639,118.3794,Nan'an Hotel
650,Moree,AU,69.91,overcast clouds,-29.4667,149.85,Molika Springs Motel
651,Zhanaozen,KZ,80.8,clear sky,43.3,52.8,K.korabay 28A
652,Zinder,NE,78.76,clear sky,13.8072,8.9881,Hotel de Ville
653,Joshimath,IN,75.88,broken clouds,30.5667,79.5667,Shivalik Camps & Resort
655,Los Llanos De Aridane,ES,66.13,few clouds,28.6585,-17.9182,Valle Aridane
657,Carutapera,BR,77.72,broken clouds,-1.195,-46.02,Lidera
658,Tukrah,LY,81.95,clear sky,32.5341,20.5791,Lagrota restaurant
659,Gidam,IN,73.65,moderate rain,18.9833,81.4,Dhanshree Lodge And DormItory
660,Antequera,ES,67.77,clear sky,37.0194,-4.5612,Convento de la Magdalena
661,Qui Nhon,VN,83.77,overcast clouds,13.7667,109.2333,Seagull Hotel
662,Sampit,ID,78.15,light rain,-2.5333,112.95,Aquarius Boutique Hotel Sampit
666,Hualmay,PE,60.33,broken clouds,-11.0964,-77.6139,Hotel Villa Kitzia Huacho
667,Puerto Escondido,MX,76.03,scattered clouds,15.85,-97.0667,Aldea del Bazar Hotel and Spa
669,Coxim,BR,79.03,overcast clouds,-18.5067,-54.76,Rancho Da Curica
671,Phalaborwa,ZA,69.08,overcast clouds,-23.943,31.1411,Bothabelo Bed and Breakfast
672,Gat,IL,81.28,few clouds,31.61,34.7642,OlusHome
675,Brewster,US,66.27,clear sky,41.3973,-73.6171,Heidi's Inn
677,Ugoofaaru,MV,80.47,light rain,5.6667,73.0,Ungoofaaru Inn
678,Yabrud,SY,73.29,clear sky,33.9674,36.6574,صالة افراح الاندلس
680,Misratah,LY,86.41,clear sky,32.3754,15.0925,Almasa Hotel
682,Vao,NC,74.03,clear sky,-22.6667,167.4833,Hotel Kou-Bugny
683,Marantao,PH,78.06,moderate rain,7.95,124.2333,Kadi asnifah property
684,Rosita,NI,73.6,overcast clouds,13.9268,-84.4032,Hospedaje Zeledón
686,Likhoy,RU,63.57,broken clouds,48.1266,40.2056,Dom Otdykha Lokomotivnykh Brigad
687,Pundaguitan,PH,84.83,overcast clouds,6.3711,126.1689,Leonardo Family Beach House 1
689,Gwadar,PK,82.78,broken clouds,25.1216,62.3254,Sadaf Resort
690,Lebanon,US,75.2,broken clouds,36.2081,-86.2911,Hampton Inn & Suites Lebanon
691,Rabo De Peixe,PT,70.29,few clouds,37.8,-25.5833,Quinta das Giestas
693,Balsas,BR,78.01,scattered clouds,-7.5325,-46.0356,Novo Hotel
695,Kawalu,ID,78.93,overcast clouds,-7.3817,108.2082,West Jontor
696,Caluquembe,AO,69.31,clear sky,-13.7833,14.6833,Hotel Kalukembe
697,Jiayuguan,CN,73.54,clear sky,39.8167,98.3,Jiugang Hotel - Jiayuguan
698,Souillac,MU,75.58,few clouds,-20.5167,57.5167,Shanti Maurice Resort & Spa
700,Richards Bay,ZA,61.45,light rain,-28.783,32.0377,BON Hotel Waterfront Richards Bay
704,Lingao,CN,87.93,broken clouds,19.9103,109.6859,Lingao Ditai Inn
705,Arlit,NE,88.02,clear sky,18.7369,7.3853,Case de Passage De la Prefecture
707,Sergeyevka,KZ,78.57,few clouds,53.88,67.4158,Amina
